[
  {
    "name": "Lune",
    "city": "Mumbai",
    "position": {
      "lat": 19.0596,
      "lng": 72.8295
    },
    "type": "jewelry",
    "category": "Jewelry",
    "icon": "ğŸ’",
    "color": "#8b5cf6",
    "details": "Cult jewelry, celestial designs â€¢ Hours: Mon-Sat 11amâ€“7:30pm, Sun closed â€¢ ğŸ“ Shop 1 & 2, Labbaik House, 39, Chimbai Road, Bandra West, 400050",
    "url": "shoplune.com",
    "instagram": "@shoplune",
    "phone": "+91 9307957895",
    "address": "Shop 1 & 2, Labbaik House, 39, Chimbai Road, Bandra West, 400050"
  },
  {
    "name": "Two Extra Lives",
    "city": "Mumbai",
    "position": {
      "lat": 19.0596,
      "lng": 72.8295
    },
    "type": "fashion",
    "category": "Vintage/Concept",
    "icon": "ğŸ‘—",
    "color": "#ec4899",
    "details": "Upcycled, vintage, conscious fashion â€¢ Hours: Daily 11amâ€“8pm â€¢ ğŸ“ Bungalow 111, 562 Dr Ambedkar Road, Pali Village, Bandra West, 400050",
    "url": "twoextralives.com",
    "instagram": "@two.extra.lives",
    "phone": "+91 8655271937",
    "address": "Bungalow 111, 562 Dr Ambedkar Road, Pali Village, Bandra West, 400050"
  },
  {
    "name": "Call of the Valley",
    "city": "Mumbai",
    "position": {
      "lat": 19.0596,
      "lng": 72.8295
    },
    "type": "perfume",
    "category": "Perfume/Lifestyle",
    "icon": "ğŸŒ¸",
    "color": "#a855f7",
    "details": "Artisanal Indian perfume oils â€¢ ğŸ“ Shop 3, Aruna Niwas, Pali Village, Bandra West, 400050",
    "url": "callofthevalley.com",
    "instagram": "@callofthevalleyofficial",
    "phone": "+91 9702197503",
    "address": "Shop 3, Aruna Niwas, Pali Village, Bandra West, 400050"
  },
  {
    "name": "Good Earth",
    "city": "Mumbai",
    "position": {
      "lat": 19.0008,
      "lng": 72.8304
    },
    "type": "home",
    "category": "Home/Lifestyle",
    "icon": "ğŸ ",
    "color": "#10b981",
    "details": "Handcrafted luxury homeware, Indian crafts â€¢ ğŸ“ 11-12 Raghuvanshi Mills Compound, Senapati Bapat Marg, Lower Parel",
    "url": "goodearth.in",
    "instagram": "@goodearthindia",
    "phone": null,
    "address": "11-12 Raghuvanshi Mills Compound, Senapati Bapat Marg, Lower Parel"
  },
  {
    "name": "Hatsu",
    "city": "Mumbai",
    "position": {
      "lat": 19.0008,
      "lng": 72.8304
    },
    "type": "home",
    "category": "Home/Design",
    "icon": "ğŸ ",
    "color": "#10b981",
    "details": "Modern lighting, furniture, quirky dÃ©cor â€¢ ğŸ“ 25, Laxmi Mill Compound, Shakti Mills Lane, Mahalakshmi",
    "url": "hatsu.in",
    "instagram": "@hatsu.in",
    "phone": null,
    "address": "25, Laxmi Mill Compound, Shakti Mills Lane, Mahalakshmi"
  },
  {
    "name": "James Ferreira",
    "city": "Mumbai",
    "position": {
      "lat": 18.951,
      "lng": 72.8144
    },
    "type": "fashion",
    "category": "Fashion",
    "icon": "ğŸ‘—",
    "color": "#ec4899",
    "details": "Contemporary clothing from heritage bungalow â€¢ ğŸ“ Studio 47-G Khotachiwadi Trail, 1st Lane, Khotachiwadi, Girgaon",
    "url": "jamesferreira.in",
    "instagram": "@jamesferreirastudio",
    "phone": null,
    "address": "Studio 47-G Khotachiwadi Trail, 1st Lane, Khotachiwadi, Girgaon"
  },
  {
    "name": "Nicobar",
    "city": "Mumbai",
    "position": {
      "lat": 18.9278,
      "lng": 72.8319
    },
    "type": "lifestyle",
    "category": "Lifestyle",
    "icon": "âœ¨",
    "color": "#ec4899",
    "details": "Tropical-accented homeware, bohemian clothing â€¢ ğŸ“ 10 Ropewalk Lane, Above Kala Ghoda CafÃ©, Kala Ghoda, Fort",
    "url": "nicobar.com",
    "instagram": "@nicobarhq",
    "phone": null,
    "address": "10 Ropewalk Lane, Above Kala Ghoda CafÃ©, Kala Ghoda, Fort"
  },
  {
    "name": "Ogaan",
    "city": "Mumbai",
    "position": {
      "lat": 18.9278,
      "lng": 72.8319
    },
    "type": "fashion",
    "category": "Designer Fashion",
    "icon": "ğŸ‘—",
    "color": "#ec4899",
    "details": "Indian designer clothing (men's and women's) â€¢ ğŸ“ 6/8, Navbharat House, Burjorji S Bharucha Marg, Kala Ghoda",
    "url": "ogaan.com",
    "instagram": "@ogaanindia",
    "phone": null,
    "address": "6/8, Navbharat House, Burjorji S Bharucha Marg, Kala Ghoda"
  },
  {
    "name": "Sabyasachi",
    "city": "Mumbai",
    "position": {
      "lat": 18.932,
      "lng": 72.8347
    },
    "type": "fashion",
    "category": "Couture/Wedding",
    "icon": "ğŸ‘°",
    "color": "#f472b6",
    "details": "Bridalwear flagship/living museum â€¢ ğŸ“ IGP Fort, Veer Nariman Road, near Horniman Circle, Fort",
    "url": "sabyasachiofficial.com",
    "instagram": "@sabyasachiofficial",
    "phone": null,
    "address": "IGP Fort, Veer Nariman Road, near Horniman Circle, Fort"
  },
  {
    "name": "Valliyan",
    "city": "Mumbai",
    "position": {
      "lat": 18.9278,
      "lng": 72.8319
    },
    "type": "jewelry",
    "category": "Jewelry",
    "icon": "ğŸ’",
    "color": "#8b5cf6",
    "details": "Statement jewelry, retro-futurist designs â€¢ ğŸ“ First Floor, Rhythm House Building, 59 Forbes Street, Fort",
    "url": "valliyan.com",
    "instagram": "@valliyan",
    "phone": null,
    "address": "First Floor, Rhythm House Building, 59 Forbes Street, Fort"
  },
  {
    "name": "Moonray",
    "city": "Mumbai",
    "position": {
      "lat": 18.9278,
      "lng": 72.8319
    },
    "type": "fashion",
    "category": "Womenswear",
    "icon": "ğŸ‘—",
    "color": "#ec4899",
    "details": "Sophisticated tailored womenswear & accessories â€¢ ğŸ“ Ground floor, Mittal Avenue, Kala Ghoda, Fort",
    "url": "moonray.in",
    "instagram": "@moonray.in",
    "phone": null,
    "address": "Ground floor, Mittal Avenue, Kala Ghoda, Fort"
  },
  {
    "name": "Jodi",
    "city": "Mumbai",
    "position": {
      "lat": 18.932,
      "lng": 72.8347
    },
    "type": "fashion",
    "category": "Menswear/Womenswear",
    "icon": "ğŸ‘—",
    "color": "#ec4899",
    "details": "Hand-block print, colorful menswear â€¢ ğŸ“ Shop no. 1, Lentin Chambers, Dalal Street, Fort",
    "url": "thejodilife.com",
    "instagram": "@thejodilife",
    "phone": null,
    "address": "Shop no. 1, Lentin Chambers, Dalal Street, Fort"
  },
  {
    "name": "Obataimu",
    "city": "Mumbai",
    "position": {
      "lat": 18.9278,
      "lng": 72.8319
    },
    "type": "menswear",
    "category": "Concept/Menswear",
    "icon": "ğŸ‘”",
    "color": "#3b82f6",
    "details": "Limited-edition, innovative contemporary clothing â€¢ ğŸ“ Ground Floor, Machinery House, 3, S Bharucha Marg, Kala Ghoda, Fort",
    "url": "obataimu.com",
    "instagram": "@obataimu",
    "phone": null,
    "address": "Ground Floor, Machinery House, 3, S Bharucha Marg, Kala Ghoda, Fort"
  },
  {
    "name": "Nappa Dori",
    "city": "Mumbai",
    "position": {
      "lat": 18.9067,
      "lng": 72.8147
    },
    "type": "accessories",
    "category": "Accessories",
    "icon": "ğŸ‘œ",
    "color": "#f59e0b",
    "details": "Luggage and leather accessories â€¢ ğŸ“ 2, Sunny House, Mereweather Road, Colaba",
    "url": "nappadori.com",
    "instagram": "@nappadori",
    "phone": null,
    "address": "2, Sunny House, Mereweather Road, Colaba"
  },
  {
    "name": "Le Mill",
    "city": "Mumbai",
    "position": {
      "lat": 18.9067,
      "lng": 72.8147
    },
    "type": "luxury",
    "category": "Luxury Fashion",
    "icon": "ğŸ’",
    "color": "#8b5cf6",
    "details": "Global luxury brands, top international labels â€¢ ğŸ“ 1st Floor, Pheroze Building, Chhatrapati Shivaji Maharaj Marg, Colaba",
    "url": "lemillindia.com",
    "instagram": "@lemillindia",
    "phone": null,
    "address": "1st Floor, Pheroze Building, Chhatrapati Shivaji Maharaj Marg, Colaba"
  },
  {
    "name": "Pernia's Pop-Up Studio (Bandra)",
    "city": "Mumbai",
    "position": {
      "lat": 19.0596,
      "lng": 72.8295
    },
    "type": "menswear",
    "category": "Designer Menswear",
    "icon": "ğŸ‘”",
    "color": "#3b82f6",
    "details": "Multi-designer luxury menswear â€¢ ğŸ“ Bandra",
    "url": "perniaspopupshop.com",
    "instagram": "@perniaspopupshop",
    "phone": null,
    "address": "Bandra"
  },
  {
    "name": "Pernia's Pop-Up Studio (Juhu)",
    "city": "Mumbai",
    "position": {
      "lat": 19.099,
      "lng": 72.8268
    },
    "type": "menswear",
    "category": "Designer Menswear",
    "icon": "ğŸ‘”",
    "color": "#3b82f6",
    "details": "Multi-designer luxury menswear â€¢ ğŸ“ Juhu",
    "url": "perniaspopupshop.com",
    "instagram": "@perniaspopupshop",
    "phone": null,
    "address": "Juhu"
  },
  {
    "name": "Raymond",
    "city": "Mumbai",
    "position": {
      "lat": 19.1355,
      "lng": 72.8262
    },
    "type": "menswear",
    "category": "Suiting",
    "icon": "ğŸ‘”",
    "color": "#3b82f6",
    "details": "Classic suits, custom tailoring â€¢ ğŸ“ Andheri West",
    "url": "myraymond.com",
    "instagram": null,
    "phone": null,
    "address": "Andheri West"
  },
  {
    "name": "Curato",
    "city": "Mumbai",
    "position": {
      "lat": 19.0708,
      "lng": 72.8357
    },
    "type": "menswear",
    "category": "Menswear",
    "icon": "ğŸ‘”",
    "color": "#3b82f6",
    "details": "Leading Indian designer brands â€¢ ğŸ“ Khar, Kala Ghoda",
    "url": "curato.in",
    "instagram": "@curato.in",
    "phone": null,
    "address": "Khar, Kala Ghoda"
  },
  {
    "name": "Masculine",
    "city": "Mumbai",
    "position": {
      "lat": 19.099,
      "lng": 72.8268
    },
    "type": "menswear",
    "category": "Tailoring",
    "icon": "ğŸ‘”",
    "color": "#3b82f6",
    "details": "Bespoke tailoring, established 1987 â€¢ ğŸ“ Juhu",
    "url": null,
    "instagram": "@masculineofficial",
    "phone": null,
    "address": "Juhu"
  },
  {
    "name": "Abstract Mens",
    "city": "Mumbai",
    "position": {
      "lat": 19.2307,
      "lng": 72.8567
    },
    "type": "menswear",
    "category": "Streetwear",
    "icon": "ğŸ§¢",
    "color": "#6366f1",
    "details": "Modern oversized, hype street fashion â€¢ ğŸ“ Borivali West",
    "url": null,
    "instagram": "@abstractb",
    "phone": null,
    "address": "Borivali West"
  },
  {
    "name": "Paak Pehnawa",
    "city": "Mumbai",
    "position": {
      "lat": 19.076,
      "lng": 72.8777
    },
    "type": "menswear",
    "category": "Ethnic Menswear",
    "icon": "ğŸ‘”",
    "color": "#3b82f6",
    "details": "Pure, premium ethnicwear for men â€¢ ğŸ“ Mumbai",
    "url": null,
    "instagram": "@paak.pehnawa.mens",
    "phone": null,
    "address": "Mumbai"
  },
  {
    "name": "Acros Ethnic",
    "city": "Mumbai",
    "position": {
      "lat": 19.076,
      "lng": 72.8777
    },
    "type": "menswear",
    "category": "Ethnic Menswear",
    "icon": "ğŸ‘”",
    "color": "#3b82f6",
    "details": "Traditional, Indo-western, trending â€¢ ğŸ“ Mumbai",
    "url": null,
    "instagram": "@acros_ethnic",
    "phone": null,
    "address": "Mumbai"
  },
  {
    "name": "Linking Road",
    "city": "Mumbai",
    "position": {
      "lat": 19.0596,
      "lng": 72.8295
    },
    "type": "shopping",
    "category": "Street Shopping",
    "icon": "ğŸ›ï¸",
    "color": "#f59e0b",
    "details": "Trendy street fashion, accessible prices â€¢ ğŸ“ Bandra West",
    "url": null,
    "instagram": null,
    "phone": null,
    "address": "Bandra West"
  },
  {
    "name": "Colaba Causeway",
    "city": "Mumbai",
    "position": {
      "lat": 18.9067,
      "lng": 72.8147
    },
    "type": "shopping",
    "category": "Street Shopping",
    "icon": "ğŸ›ï¸",
    "color": "#f59e0b",
    "details": "Eclectic finds, vintage-inspired â€¢ ğŸ“ Colaba",
    "url": null,
    "instagram": null,
    "phone": null,
    "address": "Colaba"
  },
  {
    "name": "Oberoi Mall",
    "city": "Mumbai",
    "position": {
      "lat": 19.1653,
      "lng": 72.8494
    },
    "type": "shopping",
    "category": "Mall",
    "icon": "ğŸ¬",
    "color": "#64748b",
    "details": "High-street fashion, multi-brand â€¢ ğŸ“ Goregaon",
    "url": null,
    "instagram": null,
    "phone": null,
    "address": "Goregaon"
  },
  {
    "name": "Phoenix Palladium",
    "city": "Mumbai",
    "position": {
      "lat": 19.0008,
      "lng": 72.8304
    },
    "type": "shopping",
    "category": "Mall",
    "icon": "ğŸ¬",
    "color": "#64748b",
    "details": "Luxury brands, flagship stores â€¢ ğŸ“ Lower Parel",
    "url": null,
    "instagram": null,
    "phone": null,
    "address": "Lower Parel"
  },
  {
    "name": "R City Mall",
    "city": "Mumbai",
    "position": {
      "lat": 19.0866,
      "lng": 72.9081
    },
    "type": "shopping",
    "category": "Mall",
    "icon": "ğŸ¬",
    "color": "#64748b",
    "details": "New brand launches, trendy casuals â€¢ ğŸ“ Ghatkopar West",
    "url": null,
    "instagram": null,
    "phone": null,
    "address": "Ghatkopar West"
  },
  {
    "name": "Bhavya Ramesh",
    "city": "Mumbai",
    "position": {
      "lat": 18.9278,
      "lng": 72.8319
    },
    "type": "jewelry",
    "category": "Jewelry",
    "icon": "ğŸ’",
    "color": "#8b5cf6",
    "details": "Alternative, edgy, celestial-inspired â€¢ ğŸ“ Kala Ghoda",
    "url": "bhavyaramesh.com",
    "instagram": "@bhavyarameshjewelry",
    "phone": null,
    "address": "Kala Ghoda"
  },
  {
    "name": "ISHARYA",
    "city": "Mumbai",
    "position": {
      "lat": 19.076,
      "lng": 72.8777
    },
    "type": "jewelry",
    "category": "Jewelry",
    "icon": "ğŸ’",
    "color": "#8b5cf6",
    "details": "Modern Indian statement jewelry â€¢ ğŸ“ Mumbai",
    "url": "isharya.com",
    "instagram": "@isharya",
    "phone": null,
    "address": "Mumbai"
  },
  {
    "name": "Tanzire",
    "city": "Mumbai",
    "position": {
      "lat": 19.076,
      "lng": 72.8777
    },
    "type": "jewelry",
    "category": "Jewelry",
    "icon": "ğŸ’",
    "color": "#8b5cf6",
    "details": "Handmade demi-fine jewelry â€¢ ğŸ“ Mumbai",
    "url": "tanzire.com",
    "instagram": "@tanzire.co",
    "phone": null,
    "address": "Mumbai"
  },
  {
    "name": "Moksh",
    "city": "Mumbai",
    "position": {
      "lat": 19.076,
      "lng": 72.8777
    },
    "type": "jewelry",
    "category": "Jewelry",
    "icon": "ğŸ’",
    "color": "#8b5cf6",
    "details": "Modern, contemporary, luxury jewelry â€¢ ğŸ“ Mumbai",
    "url": "mokshjewellery.com",
    "instagram": "@jewelsbymoksh",
    "phone": null,
    "address": "Mumbai"
  },
  {
    "name": "Bodements",
    "city": "Mumbai",
    "position": {
      "lat": 19.076,
      "lng": 72.8777
    },
    "type": "fashion",
    "category": "Fashion/Vintage",
    "icon": "ğŸ‘—",
    "color": "#ec4899",
    "details": "Curated vintage/upcycled clothing â€¢ ğŸ“ Mumbai/Paris",
    "url": "bodements.com",
    "instagram": "@bodements_",
    "phone": null,
    "address": "Mumbai/Paris"
  },
  {
    "name": "Timeless Vintage Studios",
    "city": "Mumbai",
    "position": {
      "lat": 19.2042,
      "lng": 72.8546
    },
    "type": "fashion",
    "category": "Vintage/Thrift",
    "icon": "ğŸ‘—",
    "color": "#ec4899",
    "details": "Thrift, collectibles, vintage, pop-ups â€¢ ğŸ“ Kandivali",
    "url": null,
    "instagram": "@timelessvintagestudios",
    "phone": null,
    "address": "Kandivali"
  },
  {
    "name": "Teatro Dhora",
    "city": "Mumbai",
    "position": {
      "lat": 19.0596,
      "lng": 72.8295
    },
    "type": "lifestyle",
    "category": "Concept Store",
    "icon": "âœ¨",
    "color": "#ec4899",
    "details": "Art-fashion, multi-designer, experiential â€¢ ğŸ“ Bandra",
    "url": "teatrodhora.com",
    "instagram": "@teatrodhora",
    "phone": null,
    "address": "Bandra"
  },
  {
    "name": "Yusuf Bhai Perfumery",
    "city": "Mumbai",
    "position": {
      "lat": 19.076,
      "lng": 72.8777
    },
    "type": "perfume",
    "category": "Perfume",
    "icon": "ğŸŒ¸",
    "color": "#a855f7",
    "details": "Heritage Bombay-style perfume â€¢ ğŸ“ Mumbai",
    "url": null,
    "instagram": "@yusufbhaiperfumer",
    "phone": null,
    "address": "Mumbai"
  },
  {
    "name": "Boond Fragrances",
    "city": "Mumbai",
    "position": {
      "lat": 19.076,
      "lng": 72.8777
    },
    "type": "perfume",
    "category": "Perfume",
    "icon": "ğŸŒ¸",
    "color": "#a855f7",
    "details": "Pure, natural, artisanal Indian fragrances â€¢ ğŸ“ Mumbai/Kannauj",
    "url": "boondfragrances.com",
    "instagram": "@boondfragrances",
    "phone": null,
    "address": "Mumbai/Kannauj"
  },
  {
    "name": "BoConcept India",
    "city": "Mumbai",
    "position": {
      "lat": 19.0008,
      "lng": 72.8304
    },
    "type": "home",
    "category": "Home/Furniture",
    "icon": "ğŸ ",
    "color": "#10b981",
    "details": "Modern Danish design, premium â€¢ ğŸ“ Lower Parel",
    "url": "boconcept.in",
    "instagram": "@boconceptin",
    "phone": null,
    "address": "Lower Parel"
  },
  {
    "name": "The Pure Concept Home",
    "city": "Mumbai",
    "position": {
      "lat": 18.9278,
      "lng": 72.8319
    },
    "type": "home",
    "category": "Home/Interiors",
    "icon": "ğŸ ",
    "color": "#10b981",
    "details": "Luxe fabrics, home consultancy â€¢ ğŸ“ Kala Ghoda",
    "url": "shop.thepureconcepthome.com",
    "instagram": "@tpc.home",
    "phone": null,
    "address": "Kala Ghoda"
  },
  {
    "name": "Maison Sia",
    "city": "Mumbai",
    "position": {
      "lat": 19.0008,
      "lng": 72.8304
    },
    "type": "home",
    "category": "Home/Decor",
    "icon": "ğŸ ",
    "color": "#10b981",
    "details": "International, curated luxury â€¢ ğŸ“ Raghuvanshi Mills",
    "url": "maisonsia.com",
    "instagram": "@maisonsia_",
    "phone": null,
    "address": "Raghuvanshi Mills"
  },
  {
    "name": "Togs Jaipur",
    "city": "Jaipur",
    "position": {
      "lat": 26.8871,
      "lng": 75.8076
    },
    "type": "menswear",
    "category": "Custom Menswear",
    "icon": "ğŸ‘”",
    "color": "#3b82f6",
    "details": "Designer half jackets to tuxedos, Kurta to Sherwanis â€¢ ğŸ“ B14c, near MFG mall, C Scheme, Ashok Nagar, Jaipur",
    "url": null,
    "instagram": "@togsjaipur",
    "phone": "+91 99715 10515",
    "address": "B14c, near MFG mall, C Scheme, Ashok Nagar, Jaipur"
  },
  {
    "name": "Raymond Jaipur",
    "city": "Jaipur",
    "position": {
      "lat": 26.8544,
      "lng": 75.8205
    },
    "type": "menswear",
    "category": "Suiting",
    "icon": "ğŸ‘”",
    "color": "#3b82f6",
    "details": "Classic suits, custom tailoring â€¢ ğŸ“ Jawaharlal Nehru Marg, Malviya Nagar, Jaipur",
    "url": "myraymond.com",
    "instagram": null,
    "phone": "08069867491",
    "address": "Jawaharlal Nehru Marg, Malviya Nagar, Jaipur"
  },
  {
    "name": "Park Avenue Jaipur",
    "city": "Jaipur",
    "position": {
      "lat": 26.8544,
      "lng": 75.8205
    },
    "type": "menswear",
    "category": "Premium Menswear",
    "icon": "ğŸ‘”",
    "color": "#3b82f6",
    "details": "Business suits, formal wear, casual wear â€¢ ğŸ“ Malviya Nagar, Jaipur",
    "url": "parkavenue.in",
    "instagram": null,
    "phone": null,
    "address": "Malviya Nagar, Jaipur"
  },
  {
    "name": "Cityvibes Jaipur",
    "city": "Jaipur",
    "position": {
      "lat": 26.8544,
      "lng": 75.8205
    },
    "type": "menswear",
    "category": "Ethnic Menswear",
    "icon": "ğŸ‘”",
    "color": "#3b82f6",
    "details": "Kurta pajamas, sherwanis, Indo-Western â€¢ ğŸ“ Malviya Nagar, Vaishali Nagar, Jaipur",
    "url": "cityvibes.in",
    "instagram": null,
    "phone": "0141-4036000",
    "address": "Malviya Nagar, Vaishali Nagar, Jaipur"
  },
  {
    "name": "ANOKHI",
    "city": "Jaipur",
    "position": {
      "lat": 26.9024,
      "lng": 75.7878
    },
    "type": "fashion",
    "category": "Concept/Fashion",
    "icon": "ğŸ‘—",
    "color": "#ec4899",
    "details": "Block-printed clothing, eco-conscious, 50+ years heritage â€¢ ğŸ“ C-Scheme & Amer, Jaipur",
    "url": "anokhi.com",
    "instagram": "@anokhijaipur",
    "phone": null,
    "address": "C-Scheme & Amer, Jaipur"
  },
  {
    "name": "Jaipur Modern",
    "city": "Jaipur",
    "position": {
      "lat": 26.9124,
      "lng": 75.7873
    },
    "type": "lifestyle",
    "category": "Concept Store",
    "icon": "âœ¨",
    "color": "#ec4899",
    "details": "Contemporary, minimalist locally-made silk & cotton â€¢ ğŸ“ Jaipur",
    "url": null,
    "instagram": null,
    "phone": null,
    "address": "Jaipur"
  },
  {
    "name": "Nila House",
    "city": "Jaipur",
    "position": {
      "lat": 26.9024,
      "lng": 75.7878
    },
    "type": "textile",
    "category": "Textile/Lifestyle",
    "icon": "ğŸ§µ",
    "color": "#10b981",
    "details": "Natural dyeing, modern Rajasthani tradition â€¢ ğŸ“ C-86, Prithviraj Road, C Scheme, Jaipur",
    "url": "nilahouse.com",
    "instagram": "@nilahouse",
    "phone": null,
    "address": "C-86, Prithviraj Road, C Scheme, Jaipur"
  },
  {
    "name": "Anokhi Museum",
    "city": "Jaipur",
    "position": {
      "lat": 26.9855,
      "lng": 75.8513
    },
    "type": "museum",
    "category": "Museum/Textile",
    "icon": "ğŸ›ï¸",
    "color": "#6366f1",
    "details": "Hand-block printing heritage techniques â€¢ ğŸ“ Kheri Gate, Amer, Jaipur",
    "url": "anokhi.com",
    "instagram": null,
    "phone": null,
    "address": "Kheri Gate, Amer, Jaipur"
  },
  {
    "name": "Johri Bazaar",
    "city": "Jaipur",
    "position": {
      "lat": 26.9248,
      "lng": 75.8246
    },
    "type": "shopping",
    "category": "Traditional Market",
    "icon": "ğŸª",
    "color": "#ef4444",
    "details": "Oldest pink market, jewelry, textiles, lehariya â€¢ ğŸ“ Johri Bazaar, Jaipur",
    "url": null,
    "instagram": null,
    "phone": null,
    "address": "Johri Bazaar, Jaipur"
  },
  {
    "name": "Bapu Bazaar",
    "city": "Jaipur",
    "position": {
      "lat": 26.9248,
      "lng": 75.8246
    },
    "type": "shopping",
    "category": "Street Shopping",
    "icon": "ğŸ›ï¸",
    "color": "#f59e0b",
    "details": "Men's suits, boots, ethnic wear â€¢ ğŸ“ Bapu Bazaar, Jaipur",
    "url": null,
    "instagram": null,
    "phone": null,
    "address": "Bapu Bazaar, Jaipur"
  },
  {
    "name": "Kishanpole Bazar",
    "city": "Jaipur",
    "position": {
      "lat": 26.9248,
      "lng": 75.8246
    },
    "type": "shopping",
    "category": "Traditional Market",
    "icon": "ğŸª",
    "color": "#ef4444",
    "details": "Bandhani sarees, tie-dye fabrics â€¢ ğŸ“ Kishanpole Bazar, Jaipur",
    "url": null,
    "instagram": null,
    "phone": null,
    "address": "Kishanpole Bazar, Jaipur"
  },
  {
    "name": "Cityvibes Udaipur",
    "city": "Udaipur",
    "position": {
      "lat": 24.5854,
      "lng": 73.7125
    },
    "type": "menswear",
    "category": "Ethnic Menswear",
    "icon": "ğŸ‘”",
    "color": "#3b82f6",
    "details": "Wedding wear, kurta pajamas, sherwanis â€¢ ğŸ“ Udaipur, Rajasthan",
    "url": "cityvibes.in",
    "instagram": null,
    "phone": null,
    "address": "Udaipur, Rajasthan"
  },
  {
    "name": "Saptapadi Luxury Store",
    "city": "Udaipur",
    "position": {
      "lat": 24.5854,
      "lng": 73.7125
    },
    "type": "menswear",
    "category": "Wedding Menswear",
    "icon": "ğŸ‘”",
    "color": "#3b82f6",
    "details": "Bespoke sartorial products, luxury wedding wear â€¢ ğŸ“ Udaipur Flagship",
    "url": "saptapadistore.com",
    "instagram": "@saptapadistore",
    "phone": null,
    "address": "Udaipur Flagship"
  },
  {
    "name": "Manyavar Udaipur",
    "city": "Udaipur",
    "position": {
      "lat": 24.58,
      "lng": 73.682
    },
    "type": "menswear",
    "category": "Ethnic Menswear",
    "icon": "ğŸ‘”",
    "color": "#3b82f6",
    "details": "Sherwanis, Indo-Western, Modi Kurta â€¢ ğŸ“ Bapu Bazar, Bhuwana, Udaipur",
    "url": "manyavar.com",
    "instagram": "@manyavar",
    "phone": null,
    "address": "Bapu Bazar, Bhuwana, Udaipur"
  },
  {
    "name": "Jade Blue",
    "city": "Udaipur",
    "position": {
      "lat": 24.5858,
      "lng": 73.6854
    },
    "type": "menswear",
    "category": "Ethnic & Western",
    "icon": "ğŸ‘”",
    "color": "#3b82f6",
    "details": "Evening shirts, blazers, Modi Kurta â€¢ ğŸ“ Court Chowaraha, Udaipur",
    "url": "jadeblue.com",
    "instagram": "@jadeblueindia",
    "phone": null,
    "address": "Court Chowaraha, Udaipur"
  },
  {
    "name": "Raymond Udaipur",
    "city": "Udaipur",
    "position": {
      "lat": 24.5854,
      "lng": 73.6872
    },
    "type": "menswear",
    "category": "Suiting",
    "icon": "ğŸ‘”",
    "color": "#3b82f6",
    "details": "Premium suits, tailoring â€¢ ğŸ“ Panchwati, Near Sukhadia Circle, Udaipur",
    "url": "myraymond.com",
    "instagram": null,
    "phone": null,
    "address": "Panchwati, Near Sukhadia Circle, Udaipur"
  },
  {
    "name": "Bapu Bazaar Udaipur",
    "city": "Udaipur",
    "position": {
      "lat": 24.58,
      "lng": 73.682
    },
    "type": "shopping",
    "category": "Traditional Market",
    "icon": "ğŸª",
    "color": "#ef4444",
    "details": "Bandhani sarees, embroidered textiles â€¢ ğŸ“ Bapu Bazaar, Udaipur",
    "url": null,
    "instagram": null,
    "phone": null,
    "address": "Bapu Bazaar, Udaipur"
  },
  {
    "name": "Jagdish Chowk",
    "city": "Udaipur",
    "position": {
      "lat": 24.5794,
      "lng": 73.6833
    },
    "type": "shopping",
    "category": "Heritage Market",
    "icon": "ğŸ›ï¸",
    "color": "#ef4444",
    "details": "Antique jewelry, hand-carved items â€¢ ğŸ“ Jagdish Chowk, Udaipur",
    "url": null,
    "instagram": null,
    "phone": null,
    "address": "Jagdish Chowk, Udaipur"
  },
  {
    "name": "Hathi Pol Bazaar",
    "city": "Udaipur",
    "position": {
      "lat": 24.5794,
      "lng": 73.6833
    },
    "type": "shopping",
    "category": "Antiques Market",
    "icon": "âš±ï¸",
    "color": "#92400e",
    "details": "Vintage jewelry, Rajput weaponry, antiques â€¢ ğŸ“ Hathi Pol Bazaar, Udaipur",
    "url": null,
    "instagram": null,
    "phone": null,
    "address": "Hathi Pol Bazaar, Udaipur"
  },
  {
    "name": "City Palace Boutiques",
    "city": "Udaipur",
    "position": {
      "lat": 24.576,
      "lng": 73.6832
    },
    "type": "handicrafts",
    "category": "Royal Crafts",
    "icon": "ğŸ‘‘",
    "color": "#9333ea",
    "details": "High-quality Mewar handicrafts â€¢ ğŸ“ City Palace Complex, Udaipur",
    "url": null,
    "instagram": null,
    "phone": null,
    "address": "City Palace Complex, Udaipur"
  },
  {
    "name": "Umang Boutique",
    "city": "Udaipur",
    "position": {
      "lat": 24.5854,
      "lng": 73.7125
    },
    "type": "fashion",
    "category": "Designer Fashion",
    "icon": "ğŸ‘—",
    "color": "#ec4899",
    "details": "Latest Indian designer patterns, ethnic wear â€¢ ğŸ“ Udaipur",
    "url": null,
    "instagram": null,
    "phone": null,
    "address": "Udaipur"
  },
  {
    "name": "Dimple Collection",
    "city": "Agra",
    "position": {
      "lat": 27.2046,
      "lng": 78.0131
    },
    "type": "menswear",
    "category": "Ethnic Menswear",
    "icon": "ğŸ‘”",
    "color": "#3b82f6",
    "details": "Men's ethnic wear, kurtas, sherwanis â€¢ ğŸ“ E-21, Bypass Road, Kamla Nagar, Agra",
    "url": "dimplecollection.in",
    "instagram": "@dimplecollection",
    "phone": null,
    "address": "E-21, Bypass Road, Kamla Nagar, Agra"
  },
  {
    "name": "Riti Riwaaz Collection",
    "city": "Agra",
    "position": {
      "lat": 27.2046,
      "lng": 78.0131
    },
    "type": "menswear",
    "category": "Designer Menswear",
    "icon": "ğŸ‘”",
    "color": "#3b82f6",
    "details": "Sherwanis, blazers, Indo-Western â€¢ ğŸ“ E-90, Kamla Nagar, Agra",
    "url": null,
    "instagram": "@ritiriwaazcollection",
    "phone": "9760325512",
    "address": "E-90, Kamla Nagar, Agra"
  },
  {
    "name": "Raymond Agra",
    "city": "Agra",
    "position": {
      "lat": 27.2152,
      "lng": 77.9753
    },
    "type": "menswear",
    "category": "Suiting",
    "icon": "ğŸ‘”",
    "color": "#3b82f6",
    "details": "Classic suits, custom tailoring â€¢ ğŸ“ Sulabh Puram Colony, Sikandra, Agra",
    "url": "myraymond.com",
    "instagram": null,
    "phone": "08044939383",
    "address": "Sulabh Puram Colony, Sikandra, Agra"
  },
  {
    "name": "Blackberrys Agra",
    "city": "Agra",
    "position": {
      "lat": 27.1767,
      "lng": 78.0081
    },
    "type": "menswear",
    "category": "Premium Menswear",
    "icon": "ğŸ‘”",
    "color": "#3b82f6",
    "details": "Premium formal and casual menswear â€¢ ğŸ“ MG Road, Sanjay Place, Agra",
    "url": "blackberrys.com",
    "instagram": "@blackberrys",
    "phone": "+919619047635",
    "address": "MG Road, Sanjay Place, Agra"
  },
  {
    "name": "Lifestyle Stores Agra",
    "city": "Agra",
    "position": {
      "lat": 27.1767,
      "lng": 78.0081
    },
    "type": "shopping",
    "category": "Multi-brand",
    "icon": "ğŸ›ï¸",
    "color": "#64748b",
    "details": "Contemporary fashion, multi-brand mall store â€¢ ğŸ“ Ashok Cosmos Mall, Sanjay Place, Agra",
    "url": "lifestylestores.com",
    "instagram": "@lifestyle_stores",
    "phone": "18001231555",
    "address": "Ashok Cosmos Mall, Sanjay Place, Agra"
  },
  {
    "name": "Sadar Bazaar",
    "city": "Agra",
    "position": {
      "lat": 27.1903,
      "lng": 78.0022
    },
    "type": "shopping",
    "category": "Traditional Market",
    "icon": "ğŸª",
    "color": "#ef4444",
    "details": "Traditional shopping, textiles â€¢ ğŸ“ Sadar Bazaar, Agra",
    "url": null,
    "instagram": null,
    "phone": null,
    "address": "Sadar Bazaar, Agra"
  },
  {
    "name": "Kinari Bazaar",
    "city": "Agra",
    "position": {
      "lat": 27.1751,
      "lng": 78.0421
    },
    "type": "shopping",
    "category": "Textile Market",
    "icon": "ğŸ§µ",
    "color": "#10b981",
    "details": "Textiles, embroidery, traditional crafts â€¢ ğŸ“ Kinari Bazaar, Agra",
    "url": null,
    "instagram": null,
    "phone": null,
    "address": "Kinari Bazaar, Agra"
  },
  {
    "name": "Sanjay Place",
    "city": "Agra",
    "position": {
      "lat": 27.1767,
      "lng": 78.0081
    },
    "type": "shopping",
    "category": "Shopping District",
    "icon": "ğŸ¬",
    "color": "#64748b",
    "details": "Modern retail, malls, branded stores â€¢ ğŸ“ Sanjay Place, Agra",
    "url": null,
    "instagram": null,
    "phone": null,
    "address": "Sanjay Place, Agra"
  },
  {
    "name": "Dastkar Ranthambore",
    "city": "Ranthambore",
    "position": {
      "lat": 26.0173,
      "lng": 76.3426
    },
    "type": "handicrafts",
    "category": "Handicrafts/Textiles",
    "icon": "ğŸ¨",
    "color": "#8b5cf6",
    "details": "Community coop, handmade textiles, village crafts â€¢ ğŸ“ Sawai Madhopur, near Ranthambore",
    "url": "dastkar.org",
    "instagram": "@dastkar_ranthambore",
    "phone": null,
    "address": "Sawai Madhopur, near Ranthambore"
  },
  {
    "name": "Village Women Craft",
    "city": "Ranthambore",
    "position": {
      "lat": 26.0173,
      "lng": 76.3426
    },
    "type": "handicrafts",
    "category": "Community Crafts",
    "icon": "ğŸ¨",
    "color": "#8b5cf6",
    "details": "Hand-carved items, paintings, textiles â€¢ ğŸ“ Sawai Madhopur",
    "url": null,
    "instagram": null,
    "phone": null,
    "address": "Sawai Madhopur"
  },
  {
    "name": "Ranthambore School of Arts",
    "city": "Ranthambore",
    "position": {
      "lat": 26.0173,
      "lng": 76.3426
    },
    "type": "handicrafts",
    "category": "Traditional Crafts",
    "icon": "ğŸ¨",
    "color": "#8b5cf6",
    "details": "Batik, tie-dye, silver jewelry, Rajasthani items â€¢ ğŸ“ Sawai Madhopur",
    "url": null,
    "instagram": null,
    "phone": null,
    "address": "Sawai Madhopur"
  },
  {
    "name": "The Tiger Shop",
    "city": "Ranthambore",
    "position": {
      "lat": 26.0173,
      "lng": 76.3426
    },
    "type": "souvenirs",
    "category": "Souvenirs",
    "icon": "ğŸ",
    "color": "#f59e0b",
    "details": "Tiger-print shirts, superfine Taj cotton fabric â€¢ ğŸ“ Sawai Madhopur",
    "url": "thetigershop.in",
    "instagram": "@thetigershop",
    "phone": null,
    "address": "Sawai Madhopur"
  },
  {
    "name": "Ranthambhore Maharani Handicrafts",
    "city": "Ranthambore",
    "position": {
      "lat": 26.0173,
      "lng": 76.3426
    },
    "type": "handicrafts",
    "category": "Local Handicrafts",
    "icon": "ğŸ¨",
    "color": "#8b5cf6",
    "details": "Quality local handicrafts, textiles â€¢ ğŸ“ Sawai Madhopur",
    "url": null,
    "instagram": null,
    "phone": null,
    "address": "Sawai Madhopur"
  },
  {
    "name": "Dhonk Crafts",
    "city": "Ranthambore",
    "position": {
      "lat": 26.0173,
      "lng": 76.3426
    },
    "type": "handicrafts",
    "category": "Eco Crafts",
    "icon": "ğŸŒ¿",
    "color": "#10b981",
    "details": "Eco-conscious, conservation-focused products â€¢ ğŸ“ Sawai Madhopur",
    "url": null,
    "instagram": null,
    "phone": null,
    "address": "Sawai Madhopur"
  }
]